{
"type": "FeatureCollection",
"crs": { "type": "name", "properties": { "name": "urn:ogc:def:crs:OGC:1.3:CRS84" } },
"features": [
{ "type": "Feature", "properties": { "id": 1, "name": "Заброска", "elev": null, "cmnt": "заброска на пять дней. Сложили на гребешке." }, "geometry": { "type": "Point", "coordinates": [ 160.500856, 55.926762 ] } },
{ "type": "Feature", "properties": { "id": 2, "name": "Навес", "elev": null, "cmnt": "Навес возле кратера Марс. дров нет." }, "geometry": { "type": "Point", "coordinates": [ 160.522479, 55.906286 ] } },
{ "type": "Feature", "properties": { "id": 3, "name": "Источник лагеря на Клешне", "elev": null, "cmnt": null }, "geometry": { "type": "Point", "coordinates": [ 160.314782, 55.735166 ] } },
{ "type": "Feature", "properties": { "id": 4, "name": "Пещера", "elev": null, "cmnt": "Глубокая пещера. Внутри очень жарко" }, "geometry": { "type": "Point", "coordinates": [ 160.317228, 55.764069 ] } },
{ "type": "Feature", "properties": { "id": 5, "name": "Мертвый лес", "elev": null, "cmnt": null }, "geometry": { "type": "Point", "coordinates": [ 160.273064, 55.646605 ] } },
{ "type": "Feature", "properties": { "id": 6, "name": "Брод р. Толбачик", "elev": null, "cmnt": null }, "geometry": { "type": "Point", "coordinates": [ 160.275163, 55.461695 ] } },
{ "type": "Feature", "properties": { "id": 7, "name": "Домики на озере Сухом", "elev": null, "cmnt": "несколько домиков. Состояние жилое." }, "geometry": { "type": "Point", "coordinates": [ 160.320521, 55.308061 ] } },
{ "type": "Feature", "properties": { "id": 8, "name": "Мост через Л. Щапину", "elev": null, "cmnt": "мост восстановлен" }, "geometry": { "type": "Point", "coordinates": [ 160.3785073, 55.25902136 ] } },
{ "type": "Feature", "properties": { "id": 9, "name": "гор. ист. Кипелое", "elev": null, "cmnt": "Домик егерей в жилом состоянии. Оборудована ванна." }, "geometry": { "type": "Point", "coordinates": [ 160.09527, 55.136063 ] } },
{ "type": "Feature", "properties": { "id": 10, "name": "мостик", "elev": null, "cmnt": null }, "geometry": { "type": "Point", "coordinates": [ 160.09847, 55.131529 ] } },
{ "type": "Feature", "properties": { "id": 11, "name": "мостик", "elev": null, "cmnt": null }, "geometry": { "type": "Point", "coordinates": [ 160.040485, 55.117244 ] } },
{ "type": "Feature", "properties": { "id": 12, "name": "лавочка у дороги", "elev": null, "cmnt": null }, "geometry": { "type": "Point", "coordinates": [ 160.015388, 55.119415 ] } },
{ "type": "Feature", "properties": { "id": 13, "name": "База охотников", "elev": null, "cmnt": "несколько домиков. новая база." }, "geometry": { "type": "Point", "coordinates": [ 159.842786, 54.987646 ] } },
{ "type": "Feature", "properties": { "id": 14, "name": "Домик охотников на Озерном", "elev": null, "cmnt": "внутри сыро. Можно укрыться от непогоды. Есть печка и дрова." }, "geometry": { "type": "Point", "coordinates": [ 159.5835, 54.795244 ] } },
{ "type": "Feature", "properties": { "id": 15, "name": "Домики охотников", "elev": null, "cmnt": "Медведи ободрали обшивку. Состояние жилое." }, "geometry": { "type": "Point", "coordinates": [ 159.598181, 54.686519 ] } },
{ "type": "Feature", "properties": { "id": 16, "name": "Домики охотников", "elev": null, "cmnt": "Медведи поломали двери. Некоторые дома открыты." }, "geometry": { "type": "Point", "coordinates": [ 159.461007, 54.511555 ] } },
{ "type": "Feature", "properties": { "id": 17, "name": "т\/б \"Верхний Стан\"", "elev": null, "cmnt": "стапель" }, "geometry": { "type": "Point", "coordinates": [ 159.430021, 54.45512 ] } },
{ "type": "Feature", "properties": { "id": 18, "name": "т\/б \"Константиновский\"", "elev": null, "cmnt": null }, "geometry": { "type": "Point", "coordinates": [ 159.307809, 54.414684 ] } },
{ "type": "Feature", "properties": { "id": 19, "name": "Старая база", "elev": null, "cmnt": null }, "geometry": { "type": "Point", "coordinates": [ 159.166523, 54.326059 ] } },
{ "type": "Feature", "properties": { "id": 20, "name": "Старая база", "elev": null, "cmnt": null }, "geometry": { "type": "Point", "coordinates": [ 159.133228, 54.317629 ] } },
{ "type": "Feature", "properties": { "id": 21, "name": "т\/б \"Каянова\"", "elev": null, "cmnt": null }, "geometry": { "type": "Point", "coordinates": [ 159.207176, 54.375698 ] } },
{ "type": "Feature", "properties": { "id": 22, "name": "т\/б \"Угрюмый\"", "elev": null, "cmnt": null }, "geometry": { "type": "Point", "coordinates": [ 158.928698, 54.197071 ] } },
{ "type": "Feature", "properties": { "id": 23, "name": "т\/б \"Упругий\"", "elev": null, "cmnt": null }, "geometry": { "type": "Point", "coordinates": [ 159.041994, 54.11112 ] } },
{ "type": "Feature", "properties": { "id": 24, "name": "т\/б \"Развилка\"", "elev": null, "cmnt": null }, "geometry": { "type": "Point", "coordinates": [ 159.106289, 54.050286 ] } },
{ "type": "Feature", "properties": { "id": 25, "name": "т\/б \"Кедровая\"", "elev": null, "cmnt": null }, "geometry": { "type": "Point", "coordinates": [ 159.056496, 53.96097 ] } },
{ "type": "Feature", "properties": { "id": 26, "name": "Навес на правом берегу", "elev": null, "cmnt": null }, "geometry": { "type": "Point", "coordinates": [ 159.02191, 53.853518 ] } },
{ "type": "Feature", "properties": { "id": 27, "name": "мин. ист. Академические", "elev": null, "cmnt": null }, "geometry": { "type": "Point", "coordinates": [ 158.820052, 53.554618 ] } },
{ "type": "Feature", "properties": { "id": 28, "name": "источники", "elev": null, "cmnt": null }, "geometry": { "type": "Point", "coordinates": [ 158.72848, 53.436728 ] } },
{ "type": "Feature", "properties": { "id": 29, "name": "мин.ист Аагские источники", "elev": null, "cmnt": "источник в домике" }, "geometry": { "type": "Point", "coordinates": [ 158.729211, 53.435833 ] } },
{ "type": "Feature", "properties": { "id": 30, "name": "Мост через р. Шумная", "elev": null, "cmnt": null }, "geometry": { "type": "Point", "coordinates": [ 158.739832, 53.422801 ] } },
{ "type": "Feature", "properties": { "id": 31, "name": "Водопад", "elev": null, "cmnt": null }, "geometry": { "type": "Point", "coordinates": [ 158.739806, 53.421325 ] } }
]
}
